{
"type": "FeatureCollection",
"name": "labin",
"crs": { "type": "name", "properties": { "name": "urn:ogc:def:crs:OGC:1.3:CRS84" } },
"features": [
{ "type": "Feature", "properties": { "id": 100, "cadena": "Labin", "nombre": "Alajuela Automercado", "direccion": "800 metros al norte de los Tribunales de Justicia, Alajuela", "Año": 2018, "Periodo_apertura": "Últimos 10 años" }, "geometry": { "type": "Point", "coordinates": [ -84.216051, 10.02834 ] } },
{ "type": "Feature", "properties": { "id": 101, "cadena": "Labin", "nombre": "Alajuela Plaza Praktico", "direccion": "Plaza Praktico, La Trinidad, Alajuela", "Año": 2022, "Periodo_apertura": "Últimos 10 años" }, "geometry": { "type": "Point", "coordinates": [ -84.2257753, 10.0104787 ] } },
{ "type": "Feature", "properties": { "id": 102, "cadena": "Labin", "nombre": "Alajuela Plaza Real", "direccion": "Plaza Real Alajuela, local #5", "Año": 1998, "Periodo_apertura": "Hace 20 a 30 años" }, "geometry": { "type": "Point", "coordinates": [ -84.20669, 10.012998 ] } },
{ "type": "Feature", "properties": { "id": 103, "cadena": "Labin", "nombre": "Alajuela Vindi", "direccion": "Alajuela, Plaza Trinidad, contiguo al Vindi.", "Año": 2018, "Periodo_apertura": "Últimos 10 años" }, "geometry": { "type": "Point", "coordinates": [ -84.225348, 10.014992 ] } },
{ "type": "Feature", "properties": { "id": 104, "cadena": "Labin", "nombre": "Automercado Cartago", "direccion": "Centro Comercial Automercado Cartago", "Año": 2023, "Periodo_apertura": "Últimos 10 años" }, "geometry": { "type": "Point", "coordinates": [ -83.930461, 9.860895 ] } },
{ "type": "Feature", "properties": { "id": 105, "cadena": "Labin", "nombre": "Automercado Moravia", "direccion": "Centro Comercial Automercado Moravia, cruce entre Moravia y Tibás", "Año": 2020, "Periodo_apertura": "Últimos 10 años" }, "geometry": { "type": "Point", "coordinates": [ -84.0625811, 9.9615846 ] } },
{ "type": "Feature", "properties": { "id": 106, "cadena": "Labin", "nombre": "Belén", "direccion": "Plaza La Ribera, del hotel Marriot 600 metros al oeste, contiguo al Fresh Market", "Año": 2015, "Periodo_apertura": "Últimos 10 años" }, "geometry": { "type": "Point", "coordinates": [ -84.180925, 9.987351 ] } },
{ "type": "Feature", "properties": { "id": 107, "cadena": "Labin", "nombre": "Calle Vieja", "direccion": "Centro Comercial Calle Vieja, 75 metros este de la Iglesia de Tres Ríos", "Año": 2013, "Periodo_apertura": "Últimos 10 años" }, "geometry": { "type": "Point", "coordinates": [ -83.982832, 9.907535 ] } },
{ "type": "Feature", "properties": { "id": 108, "cadena": "Labin", "nombre": "Cariari", "direccion": "Plaza Cariari, 400 metros este del Hotel Wyndham Costa Rica", "Año": 2011, "Periodo_apertura": "Hace 10 a 20 años" }, "geometry": { "type": "Point", "coordinates": [ -84.154455, 9.97579 ] } },
{ "type": "Feature", "properties": { "id": 109, "cadena": "Labin", "nombre": "Cipreses", "direccion": "Centro comercial Vindi Cipreses, diagonal al SEK", "Año": 2013, "Periodo_apertura": "Últimos 10 años" }, "geometry": { "type": "Point", "coordinates": [ -84.021545, 9.921265 ] } },
{ "type": "Feature", "properties": { "id": 110, "cadena": "Labin", "nombre": "Cityzen Belén", "direccion": "Cityzen epicentro laboral y social, Calle La Rivera, Belén.", "Año": 2022, "Periodo_apertura": "Últimos 10 años" }, "geometry": { "type": "Point", "coordinates": [ -84.1735107, 9.9921669 ] } },
{ "type": "Feature", "properties": { "id": 111, "cadena": "Labin", "nombre": "Clínica Orlich", "direccion": "Frente al Hospital San Juan de Dios, 1er Piso Clínica Orlich", "Año": 2019, "Periodo_apertura": "Últimos 10 años" }, "geometry": { "type": "Point", "coordinates": [ -84.085606055323396, 9.93477389565116 ] } },
{ "type": "Feature", "properties": { "id": 112, "cadena": "Labin", "nombre": "Coronado", "direccion": "Centro Comercial Paseo Nuevo, frente al IICA", "Año": 2015, "Periodo_apertura": "Últimos 10 años" }, "geometry": { "type": "Point", "coordinates": [ -84.016676, 9.969248 ] } },
{ "type": "Feature", "properties": { "id": 113, "cadena": "Labin", "nombre": "Escazú San Miguel", "direccion": "Plaza Montescazú, contiguo al Fresh Market", "Año": 2010, "Periodo_apertura": "Hace 10 a 20 años" }, "geometry": { "type": "Point", "coordinates": [ -84.136756, 9.922006 ] } },
{ "type": "Feature", "properties": { "id": 114, "cadena": "Labin", "nombre": "Granadilla", "direccion": "Plaza Vindi, del Taller Wabe 300 metros al este", "Año": 2013, "Periodo_apertura": "Últimos 10 años" }, "geometry": { "type": "Point", "coordinates": [ -84.027462, 9.932068 ] } },
{ "type": "Feature", "properties": { "id": 115, "cadena": "Labin", "nombre": "Guachipelín Blum", "direccion": "Blum Business Park, San Rafael de Escazú", "Año": 2023, "Periodo_apertura": "Últimos 10 años" }, "geometry": { "type": "Point", "coordinates": [ -84.16508, 9.952562 ] } },
{ "type": "Feature", "properties": { "id": 116, "cadena": "Labin", "nombre": "Guadalupe", "direccion": "25 metros al sur de la Iglesia de San Antonio", "Año": 1990, "Periodo_apertura": "Hace mas de 30 años" }, "geometry": { "type": "Point", "coordinates": [ -84.058434, 9.948081 ] } },
{ "type": "Feature", "properties": { "id": 117, "cadena": "Labin", "nombre": "Heredia Plaza Bratsi", "direccion": "Plaza Bratsi, Contiguo Tienda Rosabal", "Año": 2007, "Periodo_apertura": "Hace 10 a 20 años" }, "geometry": { "type": "Point", "coordinates": [ -84.111688, 9.987707 ] } },
{ "type": "Feature", "properties": { "id": 118, "cadena": "Labin", "nombre": "Heredia San Pablo", "direccion": "Plaza Vía San Pablo, contiguo al Fresh Market", "Año": 2012, "Periodo_apertura": "Hace 10 a 20 años" }, "geometry": { "type": "Point", "coordinates": [ -84.099989, 10.000344 ] } },
{ "type": "Feature", "properties": { "id": 119, "cadena": "Labin", "nombre": "Heredia San Rafael", "direccion": "Plaza Avenida San Rafael, contiguo al Fresh Market.", "Año": 2019, "Periodo_apertura": "Últimos 10 años" }, "geometry": { "type": "Point", "coordinates": [ -84.098444, 10.012778 ] } },
{ "type": "Feature", "properties": { "id": 120, "cadena": "Labin", "nombre": "La Guácima", "direccion": "Centro Comercial Los Reyes, local #10, Auto Mercado", "Año": 2014, "Periodo_apertura": "Últimos 10 años" }, "geometry": { "type": "Point", "coordinates": [ -84.261896, 9.956522 ] } },
{ "type": "Feature", "properties": { "id": 121, "cadena": "Labin", "nombre": "La Paulina", "direccion": "Plaza Paulina, de la Rotonda de Betania, 300 metros al este", "Año": 2006, "Periodo_apertura": "Hace 10 a 20 años" }, "geometry": { "type": "Point", "coordinates": [ -84.049805, 9.941417 ] } },
{ "type": "Feature", "properties": { "id": 122, "cadena": "Labin", "nombre": "Laureles", "direccion": "Centro Comercial Plaza Los Laureles, Escazú, 400 metros oeste del Country Club, local #27", "Año": 2014, "Periodo_apertura": "Últimos 10 años" }, "geometry": { "type": "Point", "coordinates": [ -84.14648, 9.930127 ] } },
{ "type": "Feature", "properties": { "id": 124, "cadena": "Labin", "nombre": "Lindora Automercado", "direccion": "Auto Mercado Lindora, frente al Centro Comercial Momentum", "Año": 2008, "Periodo_apertura": "Hace 10 a 20 años" }, "geometry": { "type": "Point", "coordinates": [ -84.193791, 9.95449 ] } },
{ "type": "Feature", "properties": { "id": 125, "cadena": "Labin", "nombre": "Lomas de Ayarco", "direccion": "Centro Comercial La Vereda Ayarco Sur, 100 metros al sur del Restaurante Doña Lela", "Año": 2017, "Periodo_apertura": "Últimos 10 años" }, "geometry": { "type": "Point", "coordinates": [ -84.019292, 9.908164 ] } },
{ "type": "Feature", "properties": { "id": 126, "cadena": "Labin", "nombre": "Momentum Pinares", "direccion": "Momentum Pinares, Torre Médica Pinares, primer piso", "Año": 2013, "Periodo_apertura": "Últimos 10 años" }, "geometry": { "type": "Point", "coordinates": [ -84.017747, 9.910584 ] } },
{ "type": "Feature", "properties": { "id": 127, "cadena": "Labin", "nombre": "Moravia", "direccion": "Plaza Lincoln, Acceso Norte Parqueo P2", "Año": 2013, "Periodo_apertura": "Últimos 10 años" }, "geometry": { "type": "Point", "coordinates": [ -84.055225, 9.962606 ] } },
{ "type": "Feature", "properties": { "id": 128, "cadena": "Labin", "nombre": "Multicentro", "direccion": "Mall Multicentro, de la Rotonda de la Griega, 1 kilómetro, carretera principal a Desamparados", "Año": 2017, "Periodo_apertura": "Últimos 10 años" }, "geometry": { "type": "Point", "coordinates": [ -84.068113, 9.900133 ] } },
{ "type": "Feature", "properties": { "id": 129, "cadena": "Labin", "nombre": "Novacentro", "direccion": "Centro Comercial Novacentro, del cruce de Moravia-Guadalupe, 100 metros norte, local #66", "Año": 2017, "Periodo_apertura": "Últimos 10 años" }, "geometry": { "type": "Point", "coordinates": [ -84.049403, 9.951811 ] } },
{ "type": "Feature", "properties": { "id": 130, "cadena": "Labin", "nombre": "Nunciatura", "direccion": "San José, Mata Redonda, diagonal a la esquina noroeste de canal 7, 100 metros oeste de Starbucks.", "Año": 2022, "Periodo_apertura": "Últimos 10 años" }, "geometry": { "type": "Point", "coordinates": [ -84.1117945, 9.9376962 ] } },
{ "type": "Feature", "properties": { "id": 131, "cadena": "Labin", "nombre": "Pinares Fresh Market", "direccion": "Plaza Express Pinares, contiguo al Fresh Market", "Año": 2014, "Periodo_apertura": "Últimos 10 años" }, "geometry": { "type": "Point", "coordinates": [ -84.019704, 9.911625 ] } },
{ "type": "Feature", "properties": { "id": 132, "cadena": "Labin", "nombre": "Plaza Amara", "direccion": "Escazú, Guachipelín a un costado de Distrito Cuatro", "Año": 2019, "Periodo_apertura": "Últimos 10 años" }, "geometry": { "type": "Point", "coordinates": [ -84.1559966, 9.9409146 ] } },
{ "type": "Feature", "properties": { "id": 133, "cadena": "Labin", "nombre": "Rohrmoser", "direccion": "Plaza Mayor 1ra etapa local #3, diagonal al Auto Mercado", "Año": 2017, "Periodo_apertura": "Últimos 10 años" }, "geometry": { "type": "Point", "coordinates": [ -84.117413, 9.944096 ] } },
{ "type": "Feature", "properties": { "id": 134, "cadena": "Labin", "nombre": "Sabana", "direccion": "Brisas del Oeste, 700 metros al oeste de POPS Sabana", "Año": 2005, "Periodo_apertura": "Hace 10 a 20 años" }, "geometry": { "type": "Point", "coordinates": [ -84.116945, 9.933545 ] } },
{ "type": "Feature", "properties": { "id": 135, "cadena": "Labin", "nombre": "Sabanilla", "direccion": "Plaza Express El Cristo, frente a Fresh Market", "Año": 2010, "Periodo_apertura": "Hace 10 a 20 años" }, "geometry": { "type": "Point", "coordinates": [ -84.023171, 9.943923 ] } },
{ "type": "Feature", "properties": { "id": 136, "cadena": "Labin", "nombre": "San Francisco Automercado", "direccion": "Auto Mercado local #2, 1 kilómetro al oeste de la Iglesia de San Francisco de Heredia", "Año": 2014, "Periodo_apertura": "Últimos 10 años" }, "geometry": { "type": "Point", "coordinates": [ -84.145643, 9.99876 ] } },
{ "type": "Feature", "properties": { "id": 137, "cadena": "Labin", "nombre": "San Francisco de Dos Ríos", "direccion": "Plaza del Bosque, 75 metros Sur de la Iglesia Católica", "Año": 2016, "Periodo_apertura": "Últimos 10 años" }, "geometry": { "type": "Point", "coordinates": [ -84.056924, 9.909545 ] } },
{ "type": "Feature", "properties": { "id": 138, "cadena": "Labin", "nombre": "San Francisco Multiflores", "direccion": "Plaza Multiflores/Fresh Market, 150 metros Sur y 800 metros suroeste de la Iglesia de San Francisco", "Año": 2012, "Periodo_apertura": "Hace 10 a 20 años" }, "geometry": { "type": "Point", "coordinates": [ -84.133986, 9.991477 ] } },
{ "type": "Feature", "properties": { "id": 139, "cadena": "Labin", "nombre": "San José", "direccion": "Edificio Burstin, frente costado norte Hospital Clínica Bíblica, Avenida 14, entre Calles 0 y 1", "Año": 1968, "Periodo_apertura": "Hace mas de 30 años" }, "geometry": { "type": "Point", "coordinates": [ -84.078778, 9.928086 ] } },
{ "type": "Feature", "properties": { "id": 140, "cadena": "Labin", "nombre": "Santa Ana", "direccion": "Plaza Express Santa Ana, contiguo a la Cruz Roja", "Año": 2005, "Periodo_apertura": "Hace 10 a 20 años" }, "geometry": { "type": "Point", "coordinates": [ -84.188047, 9.933784 ] } },
{ "type": "Feature", "properties": { "id": 141, "cadena": "Labin", "nombre": "Santa Ana Plaza Koros", "direccion": "Plaza Koros, Santa Ana, San José", "Año": 2023, "Periodo_apertura": "Últimos 10 años" }, "geometry": { "type": "Point", "coordinates": [ -84.17834, 9.933121 ] } },
{ "type": "Feature", "properties": { "id": 142, "cadena": "Labin", "nombre": "Santo Domingo", "direccion": "500 metros este del Bac San José, contiguo al Auto Mercado", "Año": 2017, "Periodo_apertura": "Últimos 10 años" }, "geometry": { "type": "Point", "coordinates": [ -84.077045, 9.986102 ] } },
{ "type": "Feature", "properties": { "id": 143, "cadena": "Labin", "nombre": "Tibás", "direccion": "Centro Comercial Guadalajara, 400 metros oeste de la UNIBE, contiguo a las Torres del ICE", "Año": 2017, "Periodo_apertura": "Últimos 10 años" }, "geometry": { "type": "Point", "coordinates": [ -84.067864, 9.961869 ] } },
{ "type": "Feature", "properties": { "id": 144, "cadena": "Labin", "nombre": "Trejos Montealegre", "direccion": "Plaza Trejos, 300 metros oeste del Restaurante Tony Romas, frente al Banco General", "Año": 2017, "Periodo_apertura": "Últimos 10 años" }, "geometry": { "type": "Point", "coordinates": [ -84.132641, 9.935506 ] } },
{ "type": "Feature", "properties": { "id": 145, "cadena": "Labin", "nombre": "Tres Ríos Automercado", "direccion": "Contiguo al AutoMercado, frente al Residencial Santa Lucía", "Año": 2011, "Periodo_apertura": "Hace 10 a 20 años" }, "geometry": { "type": "Point", "coordinates": [ -84.002796, 9.909313 ] } },
{ "type": "Feature", "properties": { "id": 146, "cadena": "Labin", "nombre": "Valle del Sol", "direccion": "Lindora Vindi, contiguo a Saint Jude School", "Año": 2012, "Periodo_apertura": "Hace 10 a 20 años" }, "geometry": { "type": "Point", "coordinates": [ -84.20226, 9.951684 ] } },
{ "type": "Feature", "properties": { "id": 147, "cadena": "Labin", "nombre": "Villa Colón", "direccion": "Centro Comercial Vía Colón, local número 4, diagonal a depósitos Santa Bárbara", "Año": 2014, "Periodo_apertura": "Últimos 10 años" }, "geometry": { "type": "Point", "coordinates": [ -84.240863, 9.928079 ] } },
{ "type": "Feature", "properties": { "id": 148, "cadena": "Labin", "nombre": "Yoses", "direccion": "Plaza Vivo, contiguo a Spoon", "Año": 2013, "Periodo_apertura": "Últimos 10 años" }, "geometry": { "type": "Point", "coordinates": [ -84.0578632, 9.9315477 ] } },
{ "type": "Feature", "properties": { "id": 149, "cadena": "Labin", "nombre": "Zapote (CAP)", "direccion": "Edificio Central Zapote, Barrio Pinto, frente al Archivo Nacional", "Año": 2015, "Periodo_apertura": "Últimos 10 años" }, "geometry": { "type": "Point", "coordinates": [ -84.048707, 9.923415 ] } },
{ "type": "Feature", "properties": { "id": 150, "cadena": "Labin", "nombre": "Oxigeno", "direccion": "Mall Oxigeno", "Año": 2018, "Periodo_apertura": "Últimos 10 años" }, "geometry": { "type": "Point", "coordinates": [ -84.13120099, 9.9943946 ] } },
{ "type": "Feature", "properties": { "id": 151, "cadena": "Labin", "nombre": "Plaza Cristal", "direccion": "Centro Comercial Plaza Cristal", "Año": 2006, "Periodo_apertura": "Hace 10 a 20 años" }, "geometry": { "type": "Point", "coordinates": [ -84.043993272326006, 9.9213945183531 ] } }
]
}
